[{"url": "http://australiancampsites.com.au/index.php?Itemid=81&catid=51%3Asouth-east&id=190%3Agolden-beach-c3&option=com_content&view=article", "lat": "-38.2324", "lon": "147.376", "name": "GOLDEN BEACH - C3"},
{"url": "http://australiancampsites.com.au/index.php?Itemid=81&catid=51%3Asouth-east&id=188%3Agolden-beach-c5&option=com_content&view=article", "lat": "-38.247", "lon": "147.358", "name": "GOLDEN BEACH - C5"},
{"url": "http://australiancampsites.com.au/index.php?Itemid=81&catid=49%3Acentral&id=165%3Abailes&option=com_content&view=article", "lat": "-37.2949", "lon": "143.24", "name": "BAILES"},
{"url": "http://australiancampsites.com.au/index.php?Itemid=81&catid=51%3Asouth-east&id=174%3Agolden-beach-c19&option=com_content&view=article", "lat": "-38.3486", "lon": "147.230", "name": "GOLDEN BEACH - C19"},
{"url": "http://australiancampsites.com.au/index.php?Itemid=81&catid=51%3Asouth-east&id=191%3Agolden-beach-c2&option=com_content&view=article", "lat": "-38.2252", "lon": "147.385", "name": "GOLDEN BEACH - C2"},
{"url": "http://australiancampsites.com.au/index.php?Itemid=81&catid=51%3Asouth-east&id=161%3Agolden-beach-c20&option=com_content&view=article", "lat": "-38.3559", "lon": "147.22", "name": "GOLDEN BEACH - C20"},
{"url": "http://australiancampsites.com.au/index.php?Itemid=81&catid=51%3Asouth-east&id=176%3Agolden-beach-c17&option=com_content&view=article", "lat": "-38.3341", "lon": "147.248", "name": "GOLDEN BEACH - C17"},
{"url": "http://australiancampsites.com.au/index.php?Itemid=82&catid=67%3Ayorke-peninsula&id=208%3Awauraltree-beach&option=com_content&view=article", "lat": "-34.5877", "lon": "137.507", "name": "WAURALTREE BEACH"},
{"url": "http://australiancampsites.com.au/index.php?Itemid=81&catid=51%3Asouth-east&id=177%3Agolden-beach-c16&option=com_content&view=article", "lat": "-38.3268", "lon": "147.257", "name": "GOLDEN BEACH - C16"},
{"url": "http://australiancampsites.com.au/index.php?Itemid=81&catid=51%3Asouth-east&id=175%3Agolden-beach-c18&option=com_content&view=article", "lat": "-38.3414", "lon": "147.239", "name": "GOLDEN BEACH - C18"},
{"url": "http://australiancampsites.com.au/index.php?Itemid=80&catid=71%3Acentral&id=284%3Aburraga&option=com_content&view=article", "lat": "-33.936328", "lon": " 149.55263", "name": "BURRAGA DAM"},
{"url": "http://australiancampsites.com.au/index.php?Itemid=81&catid=51%3Asouth-east&id=178%3Agolden-beach-c15&option=com_content&view=article", "lat": "-38.3196", "lon": "147.266", "name": "GOLDEN BEACH - C15"},
{"url": "http://australiancampsites.com.au/index.php?Itemid=81&catid=47%3Asouth-west&id=69%3Aparker-hill-campground&option=com_content&view=article", "lat": "-38.8464", "lon": "143.55", "name": "PARKER HILL"},
{"url": "http://australiancampsites.com.au/index.php?Itemid=81&catid=47%3Asouth-west&id=117%3Astevensons-falls&option=com_content&view=article", "lat": "-38.56361", "lon": "143.6563", "name": "STEVENSONS FALLS"},
{"url": "http://australiancampsites.com.au/index.php?Itemid=81&catid=47%3Asouth-west&id=72%3Adandos-campground&option=com_content&view=article", "lat": "-38.5563", "lon": "143.61", "name": "DANDOS"},
{"url": "http://australiancampsites.com.au/index.php?Itemid=81&catid=51%3Asouth-east&id=189%3Agolden-beach-c4&option=com_content&view=article", "lat": "-38.2397", "lon": "147.367", "name": "GOLDEN BEACH - C4"},
{"url": "http://australiancampsites.com.au/index.php?Itemid=81&catid=47%3Asouth-west&id=162%3Abig-hill&option=com_content&view=article", "lat": "-38.465433", "lon": "143.94185", "name": "BIG HILL"},
{"url": "http://australiancampsites.com.au/index.php?Itemid=81&catid=47%3Asouth-west&id=67%3Ajohanna-beach&option=com_content&view=article", "lat": "-38.7617", "lon": "143.37", "name": "JOHANNA BEACH"},
{"url": "http://australiancampsites.com.au/index.php?Itemid=81&catid=47%3Asouth-west&id=76%3Ahammonds-road-campground&option=com_content&view=article", "lat": "-38.3996", "lon": "144.02", "name": "HAMMONDS ROAD"},
{"url": "http://australiancampsites.com.au/index.php?Itemid=81&catid=47%3Asouth-west&id=57%3Alake-elizabeth&option=com_content&view=article", "lat": "-38.54924", "lon": "143.74", "name": "LAKE ELIZABETH"},
{"url": "http://australiancampsites.com.au/index.php?Itemid=81&catid=47%3Asouth-west&id=234%3Abeauchamp-falls&option=com_content&view=article", "lat": "-38.651", "lon": "143.605", "name": "BEAUCHAMP FALLS"},
{"url": "http://australiancampsites.com.au/index.php?Itemid=81&catid=51%3Asouth-east&id=113%3Awood-point&option=com_content&view=article", "lat": "-37.6418", "lon": "148.32", "name": "WOOD POINT"},
{"url": "http://australiancampsites.com.au/index.php?Itemid=81&catid=51%3Asouth-east&id=109%3Avictoria-falls&option=com_content&view=article", "lat": "-37.096", "lon": "147.42", "name": "VICTORIA FALLS"},
{"url": "http://australiancampsites.com.au/index.php?Itemid=81&catid=51%3Asouth-east&id=103%3Awhite-womans-waterhole&option=com_content&view=article", "lat": "-38.4807", "lon": "146.77", "name": "WHITE WOMANS WATERHOLE"},
{"url": "http://australiancampsites.com.au/index.php?Itemid=81&catid=51%3Asouth-east&id=150%3Aparadise-beach&option=com_content&view=article", "lat": "-38.2034", "lon": "147.413", "name": "PARADISE BEACH"},
{"url": "http://australiancampsites.com.au/index.php?Itemid=81&catid=51%3Asouth-east&id=151%3Apearl-point&option=com_content&view=article", "lat": "-37.7883", "lon": "148.87", "name": "PEARL POINT"},
{"url": "http://australiancampsites.com.au/index.php?Itemid=81&catid=51%3Asouth-east&id=173%3Atwo-mile-flat&option=com_content&view=article", "lat": "-37.3765", "lon": "147.291", "name": "TWO MILE\u00a0FLAT"},
{"url": "http://australiancampsites.com.au/index.php?Itemid=81&catid=51%3Asouth-east&id=171%3Ajimmy-iversons-flat&option=com_content&view=article", "lat": "-37.3782", "lon": "147.2", "name": "JIMMY IVERSONS\u00a0FLAT"},
{"url": "http://australiancampsites.com.au/index.php?Itemid=81&catid=51%3Asouth-east&id=172%3Aitalian-flat&option=com_content&view=article", "lat": "-37.3772", "lon": "147.29", "name": "ITALIAN\u00a0FLAT"},
{"url": "http://australiancampsites.com.au/index.php?Itemid=81&catid=47%3Asouth-west&id=231%3Aaire-river&option=com_content&view=article", "lat": "-38.800749", "lon": "143.47925", "name": "AIRE RIVER"},
{"url": "http://australiancampsites.com.au/index.php?Itemid=81&catid=51%3Asouth-east&id=102%3Amacalister-river&option=com_content&view=article", "lat": "-37.7624", "lon": "146.66", "name": "MACALISTER RIVER"},
{"url": "http://australiancampsites.com.au/index.php?Itemid=81&catid=51%3Asouth-east&id=158%3Aollies-jumpup&option=com_content&view=article", "lat": "-37.3792", "lon": "147.28", "name": "OLLIES JUMP UP"},
{"url": "http://australiancampsites.com.au/index.php?Itemid=81&catid=51%3Asouth-east&id=104%3Aharriers-swamp&option=com_content&view=article", "lat": "-38.229", "lon": "146.89", "name": "HARRIERS SWAMP"},
{"url": "http://australiancampsites.com.au/index.php?Itemid=81&catid=51%3Asouth-east&id=167%3Agunnai-beach&option=com_content&view=article", "lat": "-37.7868", "lon": "148.88", "name": "GUNNAI BEACH"},
{"url": "http://australiancampsites.com.au/index.php?Itemid=81&catid=51%3Asouth-east&id=184%3Agolden-beach-c9&option=com_content&view=article", "lat": "-38.2760", "lon": "147.321", "name": "GOLDEN BEACH - C9"},
{"url": "http://australiancampsites.com.au/index.php?Itemid=80&catid=70%3Asouth-east&id=257%3Ayolde&option=com_content&view=article", "lat": "-35.545147", "lon": " 148.30204", "name": "YOLDE"},
{"url": "http://australiancampsites.com.au/index.php?Itemid=80&catid=70%3Asouth-east&id=306%3Awarri-camping-reserve&option=com_content&view=article", "lat": "-35.343800", "lon": " 149.73790", "name": "WARRI CAMPING RESERVE"},
{"url": "http://australiancampsites.com.au/index.php?Itemid=80&catid=70%3Asouth-east&id=290%3Athe-pines&option=com_content&view=article", "lat": "-35.447744", "lon": " 148.28465", "name": "THE PINES"},
{"url": "http://australiancampsites.com.au/index.php?Itemid=80&catid=70%3Asouth-east&id=296%3Apaddys-river-flats&option=com_content&view=article", "lat": "-35.851874", "lon": " 148.13906", "name": "PADDYS RIVER FLATS"},
{"url": "http://australiancampsites.com.au/index.php?Itemid=80&catid=70%3Asouth-east&id=298%3Awog-wog&option=com_content&view=article", "lat": "-35.268502", "lon": " 150.03562", "name": "WOG WOG"},
{"url": "http://australiancampsites.com.au/index.php?Itemid=81&catid=51%3Asouth-east&id=186%3Agolden-beach-c8&option=com_content&view=article", "lat": "-38.2687", "lon": "147.330", "name": "GOLDEN BEACH - C8"},
{"url": "http://australiancampsites.com.au/index.php?Itemid=81&catid=51%3Asouth-east&id=187%3Agolden-beach-c6&option=com_content&view=article", "lat": "-38.2542", "lon": "147", "name": "GOLDEN BEACH - C6"},
{"url": "http://australiancampsites.com.au/index.php?Itemid=80&catid=70%3Asouth-east&id=291%3Ayachting-point&option=com_content&view=article", "lat": "-35.510763", "lon": " 148.26725", "name": "YACHTING POINT"},
{"url": "http://australiancampsites.com.au/index.php?Itemid=80&catid=70%3Asouth-east&id=294%3Apaddys-river-falls&option=com_content&view=article", "lat": "-35.859387", "lon": " 148.11531", "name": "PADDYS RIVER FALLS"},
{"url": "http://australiancampsites.com.au/index.php?Itemid=80&catid=70%3Asouth-east&id=302%3Arocky-plain&option=com_content&view=article", "lat": "-35.891462", "lon": " 148.54226", "name": "ROCKY PLAIN"},
{"url": "http://australiancampsites.com.au/index.php?Itemid=80&catid=70%3Asouth-east&id=309%3Awingello-state-forest&option=com_content&view=article", "lat": "-34.710750", "lon": " 150.19237", "name": "WINGELLO CAMPGROUND"},
{"url": "http://australiancampsites.com.au/index.php?Itemid=80&catid=70%3Asouth-east&id=297%3Aoallen-ford&option=com_content&view=article", "lat": "-35.152565", "lon": " 149.95971", "name": "OALLEN FORD"},
{"url": "http://australiancampsites.com.au/index.php?Itemid=80&catid=70%3Asouth-east&id=252%3Aendrick&option=com_content&view=article", "lat": "-35.085694", "lon": " 150.11523", "name": "ENDRICK RIVER CROSSING"},
{"url": "http://australiancampsites.com.au/index.php?Itemid=81&catid=51%3Asouth-east&id=193%3Agolden-beach-c7&option=com_content&view=article", "lat": "-38.2615", "lon": "147.340", "name": "GOLDEN BEACH - C7"},
{"url": "http://australiancampsites.com.au/index.php?Itemid=80&catid=70%3Asouth-east&id=247%3Acharleyong&option=com_content&view=article", "lat": "-35.248984", "lon": " 149.89239", "name": "CHARLEYONG CROSSING"},
{"url": "http://australiancampsites.com.au/index.php?Itemid=80&catid=70%3Asouth-east&id=292%3Alog-bridge&option=com_content&view=article", "lat": "-35.418486", "lon": " 148.27322", "name": "LOG BRIDGE"},
{"url": "http://australiancampsites.com.au/index.php?Itemid=80&catid=70%3Asouth-east&id=310%3Acorang-river&option=com_content&view=article", "lat": "-35.207530", "lon": " 150.05229", "name": "CORANG RIVER"},
{"url": "http://australiancampsites.com.au/index.php?Itemid=80&catid=70%3Asouth-east&id=289%3Ahumes&option=com_content&view=article", "lat": "-35.472685", "lon": " 148.27660", "name": "HUMES CROSSING"},
{"url": "http://australiancampsites.com.au/index.php?Itemid=80&catid=70%3Asouth-east&id=241%3Abendeela&option=com_content&view=article", "lat": "-34.739823", "lon": " 150.47118", "name": "BENDEELA RESERVE"},
{"url": "http://australiancampsites.com.au/index.php?Itemid=80&catid=62%3Amurray&id=299%3Aoura-beach&option=com_content&view=article", "lat": "-35.122804", "lon": " 147.54342", "name": "OURA BEACH"},
{"url": "http://australiancampsites.com.au/index.php?Itemid=80&catid=62%3Amurray&id=304%3Ashanty-reserve&option=com_content&view=article", "lat": "-35.114713", "lon": " 147.48192", "name": "SHANTY RESERVE"},
{"url": "http://australiancampsites.com.au/index.php?Itemid=80&catid=62%3Amurray&id=293%3Alake-mannus&option=com_content&view=article", "lat": "-35.814194", "lon": " 147.98395", "name": "LAKE MANNUS"},
{"url": "http://australiancampsites.com.au/index.php?Itemid=80&catid=70%3Asouth-east&id=303%3Amajors-creek&option=com_content&view=article", "lat": "-35.573491", "lon": " 149.74301", "name": "MAJORS CREEK RECREATION RESERVE"},
{"url": "http://australiancampsites.com.au/index.php?Itemid=80&catid=70%3Asouth-east&id=258%3Ajounama-creek&option=com_content&view=article", "lat": "-35.566095", "lon": " 148.33165", "name": "JOUNAMA CREEK"},
{"url": "http://australiancampsites.com.au/index.php?Itemid=80&catid=70%3Asouth-east&id=243%3Abombay&option=com_content&view=article", "lat": "-35.427071", "lon": " 149.71350", "name": "BOMBAY RESERVE"},
{"url": "http://australiancampsites.com.au/index.php?Itemid=80&catid=72%3Aeast&id=251%3Adrip&option=com_content&view=article", "lat": "-32.220716", "lon": " 149.79386", "name": "THE DRIP"},
{"url": "http://australiancampsites.com.au/index.php?Itemid=80&catid=72%3Aeast&id=254%3Afrying&option=com_content&view=article", "lat": "-32.218937", "lon": " 151.76157", "name": "FRYING PAN CREEK"},
{"url": "http://australiancampsites.com.au/index.php?Itemid=80&catid=72%3Aeast&id=311%3Atelegherry&option=com_content&view=article", "lat": "-32.223557", "lon": " 151.74419", "name": "TELEGHERRY FOREST PARK"},
{"url": "http://australiancampsites.com.au/index.php?Itemid=80&catid=72%3Aeast&id=249%3Acopeland&option=com_content&view=article", "lat": "-31.972952", "lon": "151.85847", "name": "COPELAND RESERVE"},
{"url": "http://australiancampsites.com.au/index.php?Itemid=80&catid=70%3Asouth-east&id=283%3Aaraluen&option=com_content&view=article", "lat": "-35.623461", "lon": "149.79411", "name": "ARALUEN CREEK"},
{"url": "http://australiancampsites.com.au/index.php?Itemid=80&catid=62%3Amurray&id=261%3Amannus&option=com_content&view=article", "lat": "-35.779177", "lon": " 147.95813", "name": "MANNUS CAMPSITE"},
{"url": "http://australiancampsites.com.au/index.php?Itemid=80&catid=72%3Aeast&id=248%3Acoachwood&option=com_content&view=article", "lat": "-32.217349", "lon": " 151.76312", "name": "COACHWOOD"},
{"url": "http://australiancampsites.com.au/index.php?Itemid=80&catid=72%3Aeast&id=312%3Awingham-riverside-reserve&option=com_content&view=article", "lat": "-31.871572", "lon": " 152.38079", "name": "WINGHAM RIVERSIDE RESERVE"},
{"url": "http://australiancampsites.com.au/index.php?Itemid=80&catid=70%3Asouth-east&id=256%3Ahenry-angel-flat&option=com_content&view=article", "lat": "-35.826147", "lon": " 148.06051", "name": "HENRY ANGEL FLAT"},
{"url": "http://australiancampsites.com.au/index.php?Itemid=80&catid=71%3Acentral&id=308%3Amacquarie-woods&option=com_content&view=article", "lat": "-33.408732", "lon": " 149.31535", "name": "MACQUARIE WOODS"},
{"url": "http://australiancampsites.com.au/index.php?Itemid=80&catid=71%3Acentral&id=255%3Agreens&option=com_content&view=article", "lat": "-33.096090", "lon": " 149.73234", "name": "GREENS POINT"},
{"url": "http://australiancampsites.com.au/index.php?Itemid=80&catid=62%3Amurray&id=163%3Akyfinns-reserve&option=com_content&view=article", "lat": "-35.9759", "lon": " 146.05", "name": "KYFINNS RESERVE"},
{"url": "http://australiancampsites.com.au/index.php?Itemid=80&catid=71%3Acentral&id=305%3Awallaby-rocks-crossing&option=com_content&view=article", "lat": "-33.074453", "lon": " 149.64955", "name": "WALLABY ROCKS CROSSING"},
{"url": "http://australiancampsites.com.au/index.php?Itemid=80&catid=71%3Acentral&id=245%3Acarcoar-dam&option=com_content&view=article", "lat": "-33.611474", "lon": " 149.18223", "name": "CARCOAR DAM"},
{"url": "http://australiancampsites.com.au/index.php?Itemid=80&catid=71%3Acentral&id=238%3Aabercrombie&option=com_content&view=article", "lat": "-33.95639", "lon": " 149.32028", "name": "ABERCROMBIE"},
{"url": "http://australiancampsites.com.au/index.php?Itemid=80&catid=71%3Acentral&id=300%3Aration-point&option=com_content&view=article", "lat": "-33.093052", "lon": " 149.71271", "name": "RATION POINT"},
{"url": "http://australiancampsites.com.au/index.php?Itemid=80&catid=71%3Acentral&id=244%3Abummaroo&option=com_content&view=article", "lat": "-34.194269", "lon": " 149.742773", "name": "BUMMAROO FORD"},
{"url": "http://australiancampsites.com.au/index.php?Itemid=82&catid=67%3Ayorke-peninsula&id=225%3Athe-gap&option=com_content&view=article", "lat": "-34.2357", "lon": "137.501", "name": "THE GAP"},
{"url": "http://australiancampsites.com.au/index.php?Itemid=82&catid=67%3Ayorke-peninsula&id=206%3Athe-bamboos&option=com_content&view=article", "lat": "-34.2854", "lon": "137.498", "name": "THE BAMBOOS"},
{"url": "http://australiancampsites.com.au/index.php?Itemid=80&catid=71%3Acentral&id=307%3Afour-mile-creek&option=com_content&view=article", "lat": "-33.415538", "lon": " 148.98584", "name": "FOUR MILE CREEK"},
{"url": "http://australiancampsites.com.au/index.php?Itemid=80&catid=71%3Acentral&id=253%3Afederal&option=com_content&view=article", "lat": "-33.349248", "lon": " 148.97778", "name": "FEDERAL FALLS"},
{"url": "http://australiancampsites.com.au/index.php?Itemid=82&catid=66%3Amurray&id=216%3Apooginook-conservation-park&option=com_content&view=article", "lat": "-34.1126", "lon": "140.102", "name": "POOGINOOK CONSERVATION PARK"},
{"url": "http://australiancampsites.com.au/index.php?Itemid=82&catid=66%3Amurray&id=218%3Amartins-bend&option=com_content&view=article", "lat": "-34.2818", "lon": "140.6277", "name": "MARTINS BEND"},
{"url": "http://australiancampsites.com.au/index.php?Itemid=82&catid=67%3Ayorke-peninsula&id=209%3Abarkers-rocks&option=com_content&view=article", "lat": "-34.7159", "lon": "137.486", "name": "BARKERS ROCKS"},
{"url": "http://australiancampsites.com.au/index.php?Itemid=80&catid=71%3Acentral&id=282%3Abakers&option=com_content&view=article", "lat": "-33.609736", "lon": "149.01189", "name": "BAKERS SHAFT RESERVE"},
{"url": "http://australiancampsites.com.au/index.php?Itemid=82&catid=66%3Amurray&id=214%3Asouth-australia&option=com_content&view=article", "lat": "-34.5619", "lon": "139.600", "name": "TENBURY - HUNTER RESERVE"},
{"url": "http://australiancampsites.com.au/index.php?Itemid=82&catid=66%3Amurray&id=215%3Alowbank-landing&option=com_content&view=article", "lat": "-34.1841", "lon": "140.072", "name": "LOWBANK LANDING"},
{"url": "http://australiancampsites.com.au/index.php?Itemid=82&catid=67%3Ayorke-peninsula&id=207%3Atiparra-rocks&option=com_content&view=article", "lat": "-34.3052", "lon": "137.500", "name": "TIPARRA ROCKS"},
{"url": "http://australiancampsites.com.au/index.php?Itemid=80&catid=72%3Aeast&id=267%3Aflat-rock&option=com_content&view=article", "lat": "-33.54778", "lon": " 149.7922", "name": "FLAT ROCK"},
{"url": "http://australiancampsites.com.au/index.php?Itemid=82&catid=66%3Amurray&id=212%3Asouth-australia&option=com_content&view=article", "lat": "-34.8422", "lon": "139.586", "name": "CAURNAMONT NORTH"},
{"url": "http://australiancampsites.com.au/index.php?Itemid=80&catid=71%3Acentral&id=242%3Ablack&option=com_content&view=article", "lat": "-33.847554", "lon": " 149.74401", "name": "BLACK SPRINGS"},
{"url": "http://australiancampsites.com.au/index.php?Itemid=82&catid=66%3Amurray&id=213%3Ahettner-landing&option=com_content&view=article", "lat": "-34.7508", "lon": "139.556", "name": "HETTNER LANDING"},
{"url": "http://australiancampsites.com.au/index.php?Itemid=82&catid=66%3Amurray&id=220%3Amurtho-forest-landing&option=com_content&view=article", "lat": "-34.0710", "lon": "140.779", "name": "MURTHO FOREST LANDING"},
{"url": "http://australiancampsites.com.au/index.php?Itemid=82&catid=68%3Aeyre-peninsula&id=229%3Alipson-cove&option=com_content&view=article", "lat": "-34.2622", "lon": "136.260", "name": "LIPSON COVE"},
{"url": "http://australiancampsites.com.au/index.php?Itemid=82&catid=69%3Aadelaide-region&id=210%3Aport-parham-camping-reserve&option=com_content&view=article", "lat": "-34.4262", "lon": "138.255", "name": "PORT PARHAM CAMPING RESERVE"},
{"url": "http://australiancampsites.com.au/index.php?Itemid=82&catid=68%3Aeyre-peninsula&id=223%3Acape-hardy-beach&option=com_content&view=article", "lat": "-34.1963", "lon": "136.299", "name": "CAPE HARDY BEACH"},
{"url": "http://australiancampsites.com.au/index.php?Itemid=82&catid=69%3Aadelaide-region&id=227%3Ahancocks-lookout&option=com_content&view=article", "lat": "-32.7022", "lon": "138.032", "name": "HANCOCK'S LOOKOUT"},
{"url": "http://australiancampsites.com.au/index.php?Itemid=81&catid=51%3Asouth-east&id=179%3Agolden-beach-c14&option=com_content&view=article", "lat": "--38.3123", "lon": "147.275", "name": "GOLDEN BEACH - C14"},
{"url": "http://australiancampsites.com.au/index.php?Itemid=82&catid=69%3Aadelaide-region&id=211%3Amallala-sports-ground&option=com_content&view=article", "lat": "-34.4390", "lon": "138.514", "name": "MALLALA SPORTS GROUND"},
{"url": "http://australiancampsites.com.au/index.php?Itemid=82&catid=68%3Aeyre-peninsula&id=222%3Akimba-showgrounds&option=com_content&view=article", "lat": "-33.1345", "lon": "136.415", "name": "KIMBA SHOWGROUNDS"},
{"url": "http://australiancampsites.com.au/index.php?Itemid=81&catid=51%3Asouth-east&id=182%3Agolden-beach-c11&option=com_content&view=article", "lat": "-38.2905", "lon": "147.303", "name": "GOLDEN BEACH - C11"},
{"url": "http://australiancampsites.com.au/index.php?Itemid=81&catid=51%3Asouth-east&id=180%3Agolden-beach-c13&option=com_content&view=article", "lat": "-38.3051", "lon": "147.285", "name": "GOLDEN BEACH - C13"},
{"url": "http://australiancampsites.com.au/index.php?Itemid=81&catid=51%3Asouth-east&id=192%3Agippsland-lakes-coastal-park&option=com_content&view=article", "lat": "-38.2179", "lon": "147.39", "name": "GOLDEN BEACH - C1"},
{"url": "http://australiancampsites.com.au/index.php?Itemid=81&catid=51%3Asouth-east&id=183%3Agolden-beach-c10&option=com_content&view=article", "lat": "-38.2833", "lon": "147.312", "name": "GOLDEN BEACH - C10"},
{"url": "http://australiancampsites.com.au/index.php?Itemid=81&catid=51%3Asouth-east&id=181%3Agolden-beach-c12&option=com_content&view=article", "lat": "-38.2978", "lon": "147.294", "name": "GOLDEN BEACH - C12"},
{"url": "http://australiancampsites.com.au/index.php?Itemid=81&catid=51%3Asouth-east&id=98%3Aconnors-plain&option=com_content&view=article", "lat": "-37.5575", "lon": "146.49", "name": "CONNORS PLAIN"},
{"url": "http://australiancampsites.com.au/index.php?Itemid=81&catid=51%3Asouth-east&id=110%3Acrb&option=com_content&view=article", "lat": "-36.9890", "lon": "147.49", "name": "CRB"},
{"url": "http://australiancampsites.com.au/index.php?Itemid=81&catid=51%3Asouth-east&id=170%3Adusty-flat&option=com_content&view=article", "lat": "-37.3785", "lon": "147.28", "name": "DUSTY\u00a0FLAT"},
{"url": "http://australiancampsites.com.au/index.php?Itemid=81&catid=51%3Asouth-east&id=152%3Abinn-beach&option=com_content&view=article", "lat": "-37.7878", "lon": "148.88", "name": "BINN BEACH"},
{"url": "http://australiancampsites.com.au/index.php?Itemid=81&catid=51%3Asouth-east&id=169%3Aanglers-rest&option=com_content&view=article", "lat": "-36.9912", "lon": "147.48", "name": "ANGLERS REST"},
{"url": "http://australiancampsites.com.au/index.php?Itemid=81&catid=52%3Amurray&id=60%3Apassage-camp&option=com_content&view=article", "lat": "-34.7301", "lon": "143.21", "name": "PASSAGE CAMP"},
{"url": "http://australiancampsites.com.au/index.php?Itemid=81&catid=52%3Amurray&id=80%3Aturner-bend&option=com_content&view=article", "lat": "-35.9788", "lon": "144.51", "name": "TURNER BEND"},
{"url": "http://australiancampsites.com.au/index.php?Itemid=81&catid=52%3Amurray&id=78%3Agunbower-island&option=com_content&view=article", "lat": "-35.6442", "lon": "144.14", "name": "GUNBOWER ISLAND"},
{"url": "http://australiancampsites.com.au/index.php?Itemid=82&catid=66%3Amurray&id=217%3Aheron-bend&option=com_content&view=article", "lat": "-34.1532", "lon": "140.331", "name": "HERON BEND"},
{"url": "http://australiancampsites.com.au/index.php?Itemid=82&catid=68%3Aeyre-peninsula&id=224%3Afitzgerald-bay&option=com_content&view=article", "lat": "-32.9165", "lon": "137.750", "name": "FITZGERALD BAY"},
{"url": "http://australiancampsites.com.au/index.php?Itemid=82&catid=69%3Aadelaide-region&id=228%3Awhite-cliffs-reserve&option=com_content&view=article", "lat": "-33.5912", "lon": "138.394", "name": "WHITE CLIFFS RESERVE"},
{"url": "http://australiancampsites.com.au/index.php?Itemid=81&catid=52%3Amurray&id=66%3Anyah&option=com_content&view=article", "lat": "-35.1706", "lon": "143.38", "name": "NYAH"},
{"url": "http://australiancampsites.com.au/index.php?Itemid=81&catid=52%3Amurray&id=118%3Apound-bend&option=com_content&view=article", "lat": "-34.7850", "lon": "142.63", "name": "POUND BEND"},
{"url": "http://australiancampsites.com.au/index.php?Itemid=81&catid=52%3Amurray&id=75%3Agonn-crossing&option=com_content&view=article", "lat": "-35.5039", "lon": "143.95", "name": "GONN CROSSING"},
{"url": "http://australiancampsites.com.au/index.php?Itemid=81&catid=52%3Amurray&id=81%3Achristies-beach&option=com_content&view=article", "lat": "-36.1046", "lon": "144.81", "name": "CHRISTIES BEACH"},
{"url": "http://australiancampsites.com.au/index.php?Itemid=81&catid=49%3Acentral&id=166%3Arichards&option=com_content&view=article", "lat": "-37.3004", "lon": "143.27", "name": "RICHARDS"},
{"url": "http://australiancampsites.com.au/index.php?Itemid=82&catid=68%3Aeyre-peninsula&id=226%3Afitzgerald-bay-bush-camp&option=com_content&view=article", "lat": "-32.9086", "lon": "137.762", "name": "FITZGERALD BAY BUSH CAMP"},
{"url": "http://australiancampsites.com.au/index.php?Itemid=81&catid=49%3Acentral&id=202%3Amugwamp-hut&option=com_content&view=article", "lat": "-37.2949", "lon": "143.24", "name": "MUGWAMP HUT"},
{"url": "http://australiancampsites.com.au/index.php?Itemid=81&catid=49%3Acentral&id=119%3Aobriens-crossing&option=com_content&view=article", "lat": "-37.49611", "lon": "144.3608", "name": "O'BRIENS CROSSING"},
{"url": "http://australiancampsites.com.au/index.php?Itemid=81&catid=49%3Acentral&id=235%3Amt-franklin&option=com_content&view=article", "lat": "-37.2655149", "lon": "144.15092", "name": "MT FRANKLIN"},
{"url": "http://australiancampsites.com.au/index.php?Itemid=81&catid=52%3Amurray&id=99%3Apolice-paddocks&option=com_content&view=article", "lat": "-35.9802", "lon": "146.50", "name": "POLICE PADDOCKS"},
{"url": "http://australiancampsites.com.au/index.php?Itemid=81&catid=49%3Acentral&id=198%3Amt-buangor-state-park-middle-creek-camp-area&option=com_content&view=article", "lat": "-37.3348", "lon": "143.24", "name": "MIDDLE CREEK"},
{"url": "http://australiancampsites.com.au/index.php?Itemid=81&catid=49%3Acentral&id=73%3Amelvilles-caves&option=com_content&view=article", "lat": "-36.6013", "lon": "143.", "name": "MELVILLES CAVES"},
{"url": "http://australiancampsites.com.au/index.php?Itemid=81&catid=49%3Acentral&id=79%3Awarburtons-bridge&option=com_content&view=article", "lat": "-37.1734", "lon": "144.23", "name": "WARBURTONS BRIDGE"},
{"url": "http://australiancampsites.com.au/index.php?Itemid=81&catid=49%3Acentral&id=203%3Aditchfield-camp&option=com_content&view=article", "lat": "-37.3185", "lon": "143.27", "name": "DITCHFIELD CAMP"},
{"url": "http://australiancampsites.com.au/index.php?Itemid=81&catid=49%3Acentral&id=164%3Amountain-creek-picnic-ground&option=com_content&view=article", "lat": "-36.9853", "lon": "143.31", "name": "MOUNTAIN CREEK PICNIC AREA"},
{"url": "http://australiancampsites.com.au/index.php?Itemid=81&catid=52%3Amurray&id=82%3Abarmah&option=com_content&view=article", "lat": "-36.0447", "lon": "144.97", "name": "BARMAH"},
{"url": "http://australiancampsites.com.au/index.php?Itemid=81&catid=49%3Acentral&id=85%3Arafterys-bend&option=com_content&view=article", "lat": "-36.4223", "lon": "145.37", "name": "RAFTERY'S BEND"},
{"url": "http://australiancampsites.com.au/index.php?Itemid=81&catid=49%3Acentral&id=59%3Alangi-ghiran-state-park-camping-and-picnic-area&option=com_content&view=article", "lat": "-37.29611", "lon": "143.0908", "name": "LANGI-GHIRAN STATE PARK"},
{"url": "http://australiancampsites.com.au/index.php?Itemid=81&catid=49%3Acentral&id=120%3Acamp-firth-park&option=com_content&view=article", "lat": "-37.43611", "lon": "144.412", "name": "CAMP FIRTH PARK"},
{"url": "http://australiancampsites.com.au/index.php?Itemid=81&catid=49%3Acentral&id=63%3Asmiths-bridge&option=com_content&view=article", "lat": "-37.3000", "lon": "143.29", "name": "SMITHS BRIDGE"},
{"url": "http://australiancampsites.com.au/index.php?Itemid=81&catid=49%3Acentral&id=77%3Amaldon-historic-reserve&option=com_content&view=article", "lat": "-36.9872", "lon": "144.05", "name": "MALDON HISTORIC RESERVE"},
{"url": "http://australiancampsites.com.au/index.php?Itemid=81&catid=49%3Acentral&id=83%3Amajors-creek-reserve&option=com_content&view=article", "lat": "-36.8555", "lon": "145.06", "name": "MAJORS CREEK RESERVE"}][{"url": "http://australiancampsites.com.au/index.php?Itemid=81&catid=47%3Asouth-west&id=117%3Astevensons-falls&option=com_content&view=article", "lat": -38.56361, "lon": 143.6563, "name": "STEVENSONS FALLS"},
{"url": "http://australiancampsites.com.au/index.php?Itemid=81&catid=47%3Asouth-west&id=162%3Abig-hill&option=com_content&view=article", "lat": -38.465433, "lon": 143.94185, "name": "BIG HILL"},
{"url": "http://australiancampsites.com.au/index.php?Itemid=81&catid=49%3Acentral&id=165%3Abailes&option=com_content&view=article", "lat": -37.2949, "lon": 143.24, "name": "BAILES"},
{"url": "http://australiancampsites.com.au/index.php?Itemid=81&catid=47%3Asouth-west&id=72%3Adandos-campground&option=com_content&view=article", "lat": -38.5563, "lon": 143.61, "name": "DANDOS"},
{"url": "http://australiancampsites.com.au/index.php?Itemid=81&catid=47%3Asouth-west&id=69%3Aparker-hill-campground&option=com_content&view=article", "lat": -38.8464, "lon": 143.55, "name": "PARKER HILL"},
{"url": "http://australiancampsites.com.au/index.php?Itemid=81&catid=47%3Asouth-west&id=67%3Ajohanna-beach&option=com_content&view=article", "lat": -38.7617, "lon": 143.37, "name": "JOHANNA BEACH"},
{"url": "http://australiancampsites.com.au/index.php?Itemid=81&catid=47%3Asouth-west&id=76%3Ahammonds-road-campground&option=com_content&view=article", "lat": -38.3996, "lon": 144.02, "name": "HAMMONDS ROAD"},
{"url": "http://australiancampsites.com.au/index.php?Itemid=81&catid=47%3Asouth-west&id=57%3Alake-elizabeth&option=com_content&view=article", "lat": -38.54924, "lon": 143.74, "name": "LAKE ELIZABETH"},
{"url": "http://australiancampsites.com.au/index.php?Itemid=81&catid=47%3Asouth-west&id=234%3Abeauchamp-falls&option=com_content&view=article", "lat": -38.651, "lon": 143.605, "name": "BEAUCHAMP FALLS"},
{"url": "http://australiancampsites.com.au/index.php?Itemid=81&catid=51%3Asouth-east&id=103%3Awhite-womans-waterhole&option=com_content&view=article", "lat": -38.4807, "lon": 146.77, "name": "WHITE WOMANS WATERHOLE"},
{"url": "http://australiancampsites.com.au/index.php?Itemid=81&catid=51%3Asouth-east&id=173%3Atwo-mile-flat&option=com_content&view=article", "lat": -37.3765, "lon": 147.291, "name": "TWO MILE\u00a0FLAT"},
{"url": "http://australiancampsites.com.au/index.php?Itemid=81&catid=47%3Asouth-west&id=231%3Aaire-river&option=com_content&view=article", "lat": -38.800749, "lon": 143.47925, "name": "AIRE RIVER"},
{"url": "http://australiancampsites.com.au/index.php?Itemid=81&catid=51%3Asouth-east&id=150%3Aparadise-beach&option=com_content&view=article", "lat": -38.2034, "lon": 147.413, "name": "PARADISE BEACH"},
{"url": "http://australiancampsites.com.au/index.php?Itemid=81&catid=51%3Asouth-east&id=151%3Apearl-point&option=com_content&view=article", "lat": -37.7883, "lon": 148.87, "name": "PEARL POINT"},
{"url": "http://australiancampsites.com.au/index.php?Itemid=81&catid=51%3Asouth-east&id=113%3Awood-point&option=com_content&view=article", "lat": -37.6418, "lon": 148.32, "name": "WOOD POINT"},
{"url": "http://australiancampsites.com.au/index.php?Itemid=81&catid=51%3Asouth-east&id=109%3Avictoria-falls&option=com_content&view=article", "lat": -37.096, "lon": 147.42, "name": "VICTORIA FALLS"},
{"url": "http://australiancampsites.com.au/index.php?Itemid=81&catid=51%3Asouth-east&id=186%3Agolden-beach-c8&option=com_content&view=article", "lat": -38.2687, "lon": 147.33, "name": "GOLDEN BEACH - C8"},
{"url": "http://australiancampsites.com.au/index.php?Itemid=81&catid=51%3Asouth-east&id=161%3Agolden-beach-c20&option=com_content&view=article", "lat": -38.3559, "lon": 147.22, "name": "GOLDEN BEACH - C20"},
{"url": "http://australiancampsites.com.au/index.php?Itemid=81&catid=51%3Asouth-east&id=187%3Agolden-beach-c6&option=com_content&view=article", "lat": -38.2542, "lon": 147.0, "name": "GOLDEN BEACH - C6"},
{"url": "http://australiancampsites.com.au/index.php?Itemid=81&catid=51%3Asouth-east&id=188%3Agolden-beach-c5&option=com_content&view=article", "lat": -38.247, "lon": 147.358, "name": "GOLDEN BEACH - C5"},
{"url": "http://australiancampsites.com.au/index.php?Itemid=81&catid=51%3Asouth-east&id=189%3Agolden-beach-c4&option=com_content&view=article", "lat": -38.2397, "lon": 147.367, "name": "GOLDEN BEACH - C4"},
{"url": "http://australiancampsites.com.au/index.php?Itemid=81&catid=51%3Asouth-east&id=193%3Agolden-beach-c7&option=com_content&view=article", "lat": -38.2615, "lon": 147.34, "name": "GOLDEN BEACH - C7"},
{"url": "http://australiancampsites.com.au/index.php?Itemid=81&catid=51%3Asouth-east&id=190%3Agolden-beach-c3&option=com_content&view=article", "lat": -38.2324, "lon": 147.376, "name": "GOLDEN BEACH - C3"},
{"url": "http://australiancampsites.com.au/index.php?Itemid=81&catid=51%3Asouth-east&id=191%3Agolden-beach-c2&option=com_content&view=article", "lat": -38.2252, "lon": 147.385, "name": "GOLDEN BEACH - C2"},
{"url": "http://australiancampsites.com.au/index.php?Itemid=81&catid=51%3Asouth-east&id=174%3Agolden-beach-c19&option=com_content&view=article", "lat": -38.3486, "lon": 147.23, "name": "GOLDEN BEACH - C19"},
{"url": "http://australiancampsites.com.au/index.php?Itemid=81&catid=51%3Asouth-east&id=181%3Agolden-beach-c12&option=com_content&view=article", "lat": -38.2978, "lon": 147.294, "name": "GOLDEN BEACH - C12"},
{"url": "http://australiancampsites.com.au/index.php?Itemid=81&catid=51%3Asouth-east&id=178%3Agolden-beach-c15&option=com_content&view=article", "lat": -38.3196, "lon": 147.266, "name": "GOLDEN BEACH - C15"},
{"url": "http://australiancampsites.com.au/index.php?Itemid=81&catid=51%3Asouth-east&id=176%3Agolden-beach-c17&option=com_content&view=article", "lat": -38.3341, "lon": 147.248, "name": "GOLDEN BEACH - C17"},
{"url": "http://australiancampsites.com.au/index.php?Itemid=81&catid=51%3Asouth-east&id=180%3Agolden-beach-c13&option=com_content&view=article", "lat": -38.3051, "lon": 147.285, "name": "GOLDEN BEACH - C13"},
{"url": "http://australiancampsites.com.au/index.php?Itemid=81&catid=51%3Asouth-east&id=175%3Agolden-beach-c18&option=com_content&view=article", "lat": -38.3414, "lon": 147.239, "name": "GOLDEN BEACH - C18"},
{"url": "http://australiancampsites.com.au/index.php?Itemid=81&catid=51%3Asouth-east&id=177%3Agolden-beach-c16&option=com_content&view=article", "lat": -38.3268, "lon": 147.257, "name": "GOLDEN BEACH - C16"},
{"url": "http://australiancampsites.com.au/index.php?Itemid=81&catid=51%3Asouth-east&id=182%3Agolden-beach-c11&option=com_content&view=article", "lat": -38.2905, "lon": 147.303, "name": "GOLDEN BEACH - C11"},
{"url": "http://australiancampsites.com.au/index.php?Itemid=81&catid=51%3Asouth-east&id=152%3Abinn-beach&option=com_content&view=article", "lat": -37.7878, "lon": 148.88, "name": "BINN BEACH"},
{"url": "http://australiancampsites.com.au/index.php?Itemid=81&catid=51%3Asouth-east&id=183%3Agolden-beach-c10&option=com_content&view=article", "lat": -38.2833, "lon": 147.312, "name": "GOLDEN BEACH - C10"},
{"url": "http://australiancampsites.com.au/index.php?Itemid=81&catid=51%3Asouth-east&id=192%3Agippsland-lakes-coastal-park&option=com_content&view=article", "lat": -38.2179, "lon": 147.39, "name": "GOLDEN BEACH - C1"},
{"url": "http://australiancampsites.com.au/index.php?Itemid=81&catid=51%3Asouth-east&id=170%3Adusty-flat&option=com_content&view=article", "lat": -37.3785, "lon": 147.28, "name": "DUSTY\u00a0FLAT"},
{"url": "http://australiancampsites.com.au/index.php?Itemid=81&catid=51%3Asouth-east&id=98%3Aconnors-plain&option=com_content&view=article", "lat": -37.5575, "lon": 146.49, "name": "CONNORS PLAIN"},
{"url": "http://australiancampsites.com.au/index.php?Itemid=81&catid=51%3Asouth-east&id=110%3Acrb&option=com_content&view=article", "lat": -36.989, "lon": 147.49, "name": "CRB"},
{"url": "http://australiancampsites.com.au/index.php?Itemid=81&catid=51%3Asouth-east&id=169%3Aanglers-rest&option=com_content&view=article", "lat": -36.9912, "lon": 147.48, "name": "ANGLERS REST"},
{"url": "http://australiancampsites.com.au/index.php?Itemid=81&catid=52%3Amurray&id=75%3Agonn-crossing&option=com_content&view=article", "lat": -35.5039, "lon": 143.95, "name": "GONN CROSSING"},
{"url": "http://australiancampsites.com.au/index.php?Itemid=81&catid=52%3Amurray&id=81%3Achristies-beach&option=com_content&view=article", "lat": -36.1046, "lon": 144.81, "name": "CHRISTIES BEACH"},
{"url": "http://australiancampsites.com.au/index.php?Itemid=81&catid=52%3Amurray&id=78%3Agunbower-island&option=com_content&view=article", "lat": -35.6442, "lon": 144.14, "name": "GUNBOWER ISLAND"},
{"url": "http://australiancampsites.com.au/index.php?Itemid=81&catid=52%3Amurray&id=80%3Aturner-bend&option=com_content&view=article", "lat": -35.9788, "lon": 144.51, "name": "TURNER BEND"},
{"url": "http://australiancampsites.com.au/index.php?Itemid=81&catid=52%3Amurray&id=118%3Apound-bend&option=com_content&view=article", "lat": -34.785, "lon": 142.63, "name": "POUND BEND"},
{"url": "http://australiancampsites.com.au/index.php?Itemid=81&catid=52%3Amurray&id=60%3Apassage-camp&option=com_content&view=article", "lat": -34.7301, "lon": 143.21, "name": "PASSAGE CAMP"},
{"url": "http://australiancampsites.com.au/index.php?Itemid=81&catid=52%3Amurray&id=66%3Anyah&option=com_content&view=article", "lat": -35.1706, "lon": 143.38, "name": "NYAH"},
{"url": "http://australiancampsites.com.au/index.php?Itemid=81&catid=52%3Amurray&id=99%3Apolice-paddocks&option=com_content&view=article", "lat": -35.9802, "lon": 146.5, "name": "POLICE PADDOCKS"},
{"url": "http://australiancampsites.com.au/index.php?Itemid=81&catid=49%3Acentral&id=166%3Arichards&option=com_content&view=article", "lat": -37.3004, "lon": 143.27, "name": "RICHARDS"},
{"url": "http://australiancampsites.com.au/index.php?Itemid=81&catid=49%3Acentral&id=119%3Aobriens-crossing&option=com_content&view=article", "lat": -37.49611, "lon": 144.3608, "name": "O'BRIENS CROSSING"},
{"url": "http://australiancampsites.com.au/index.php?Itemid=81&catid=49%3Acentral&id=63%3Asmiths-bridge&option=com_content&view=article", "lat": -37.3, "lon": 143.29, "name": "SMITHS BRIDGE"},
{"url": "http://australiancampsites.com.au/index.php?Itemid=81&catid=52%3Amurray&id=82%3Abarmah&option=com_content&view=article", "lat": -36.0447, "lon": 144.97, "name": "BARMAH"},
{"url": "http://australiancampsites.com.au/index.php?Itemid=81&catid=49%3Acentral&id=79%3Awarburtons-bridge&option=com_content&view=article", "lat": -37.1734, "lon": 144.23, "name": "WARBURTONS BRIDGE"},
{"url": "http://australiancampsites.com.au/index.php?Itemid=81&catid=49%3Acentral&id=85%3Arafterys-bend&option=com_content&view=article", "lat": -36.4223, "lon": 145.37, "name": "RAFTERY'S BEND"},
{"url": "http://australiancampsites.com.au/index.php?Itemid=81&catid=49%3Acentral&id=202%3Amugwamp-hut&option=com_content&view=article", "lat": -37.2949, "lon": 143.24, "name": "MUGWAMP HUT"},
{"url": "http://australiancampsites.com.au/index.php?Itemid=81&catid=49%3Acentral&id=235%3Amt-franklin&option=com_content&view=article", "lat": -37.2655149, "lon": 144.15092, "name": "MT FRANKLIN"},
{"url": "http://australiancampsites.com.au/index.php?Itemid=81&catid=49%3Acentral&id=164%3Amountain-creek-picnic-ground&option=com_content&view=article", "lat": -36.9853, "lon": 143.31, "name": "MOUNTAIN CREEK PICNIC AREA"},
{"url": "http://australiancampsites.com.au/index.php?Itemid=81&catid=49%3Acentral&id=83%3Amajors-creek-reserve&option=com_content&view=article", "lat": -36.8555, "lon": 145.06, "name": "MAJORS CREEK RESERVE"},
{"url": "http://australiancampsites.com.au/index.php?Itemid=81&catid=49%3Acentral&id=59%3Alangi-ghiran-state-park-camping-and-picnic-area&option=com_content&view=article", "lat": -37.29611, "lon": 143.0908, "name": "LANGI-GHIRAN STATE PARK"},
{"url": "http://australiancampsites.com.au/index.php?Itemid=81&catid=49%3Acentral&id=198%3Amt-buangor-state-park-middle-creek-camp-area&option=com_content&view=article", "lat": -37.3348, "lon": 143.24, "name": "MIDDLE CREEK"},
{"url": "http://australiancampsites.com.au/index.php?Itemid=81&catid=49%3Acentral&id=73%3Amelvilles-caves&option=com_content&view=article", "lat": -36.6013, "lon": 143.0, "name": "MELVILLES CAVES"},
{"url": "http://australiancampsites.com.au/index.php?Itemid=81&catid=49%3Acentral&id=77%3Amaldon-historic-reserve&option=com_content&view=article", "lat": -36.9872, "lon": 144.05, "name": "MALDON HISTORIC RESERVE"},
{"url": "http://australiancampsites.com.au/index.php?Itemid=81&catid=49%3Acentral&id=203%3Aditchfield-camp&option=com_content&view=article", "lat": -37.3185, "lon": 143.27, "name": "DITCHFIELD CAMP"},
{"url": "http://australiancampsites.com.au/index.php?Itemid=81&catid=49%3Acentral&id=120%3Acamp-firth-park&option=com_content&view=article", "lat": -37.43611, "lon": 144.412, "name": "CAMP FIRTH PARK"},
{"url": "http://australiancampsites.com.au/index.php?Itemid=80&catid=70%3Asouth-east&id=257%3Ayolde&option=com_content&view=article", "lat": -35.545147, "lon": 148.30204, "name": "YOLDE"},
{"url": "http://australiancampsites.com.au/index.php?Itemid=80&catid=70%3Asouth-east&id=291%3Ayachting-point&option=com_content&view=article", "lat": -35.510763, "lon": 148.26725, "name": "YACHTING POINT"},
{"url": "http://australiancampsites.com.au/index.php?Itemid=80&catid=70%3Asouth-east&id=298%3Awog-wog&option=com_content&view=article", "lat": -35.268502, "lon": 150.03562, "name": "WOG WOG"},
{"url": "http://australiancampsites.com.au/index.php?Itemid=80&catid=70%3Asouth-east&id=306%3Awarri-camping-reserve&option=com_content&view=article", "lat": -35.3438, "lon": 149.7379, "name": "WARRI CAMPING RESERVE"},
{"url": "http://australiancampsites.com.au/index.php?Itemid=80&catid=70%3Asouth-east&id=290%3Athe-pines&option=com_content&view=article", "lat": -35.447744, "lon": 148.28465, "name": "THE PINES"},
{"url": "http://australiancampsites.com.au/index.php?Itemid=80&catid=70%3Asouth-east&id=302%3Arocky-plain&option=com_content&view=article", "lat": -35.891462, "lon": 148.54226, "name": "ROCKY PLAIN"},
{"url": "http://australiancampsites.com.au/index.php?Itemid=80&catid=70%3Asouth-east&id=296%3Apaddys-river-flats&option=com_content&view=article", "lat": -35.851874, "lon": 148.13906, "name": "PADDYS RIVER FLATS"},
{"url": "http://australiancampsites.com.au/index.php?Itemid=80&catid=70%3Asouth-east&id=309%3Awingello-state-forest&option=com_content&view=article", "lat": -34.71075, "lon": 150.19237, "name": "WINGELLO CAMPGROUND"},
{"url": "http://australiancampsites.com.au/index.php?Itemid=80&catid=70%3Asouth-east&id=303%3Amajors-creek&option=com_content&view=article", "lat": -35.573491, "lon": 149.74301, "name": "MAJORS CREEK RECREATION RESERVE"},
{"url": "http://australiancampsites.com.au/index.php?Itemid=80&catid=70%3Asouth-east&id=297%3Aoallen-ford&option=com_content&view=article", "lat": -35.152565, "lon": 149.95971, "name": "OALLEN FORD"},
{"url": "http://australiancampsites.com.au/index.php?Itemid=80&catid=70%3Asouth-east&id=289%3Ahumes&option=com_content&view=article", "lat": -35.472685, "lon": 148.2766, "name": "HUMES CROSSING"},
{"url": "http://australiancampsites.com.au/index.php?Itemid=80&catid=70%3Asouth-east&id=252%3Aendrick&option=com_content&view=article", "lat": -35.085694, "lon": 150.11523, "name": "ENDRICK RIVER CROSSING"},
{"url": "http://australiancampsites.com.au/index.php?Itemid=80&catid=70%3Asouth-east&id=292%3Alog-bridge&option=com_content&view=article", "lat": -35.418486, "lon": 148.27322, "name": "LOG BRIDGE"},
{"url": "http://australiancampsites.com.au/index.php?Itemid=80&catid=70%3Asouth-east&id=294%3Apaddys-river-falls&option=com_content&view=article", "lat": -35.859387, "lon": 148.11531, "name": "PADDYS RIVER FALLS"},
{"url": "http://australiancampsites.com.au/index.php?Itemid=80&catid=70%3Asouth-east&id=256%3Ahenry-angel-flat&option=com_content&view=article", "lat": -35.826147, "lon": 148.06051, "name": "HENRY ANGEL FLAT"},
{"url": "http://australiancampsites.com.au/index.php?Itemid=80&catid=70%3Asouth-east&id=258%3Ajounama-creek&option=com_content&view=article", "lat": -35.566095, "lon": 148.33165, "name": "JOUNAMA CREEK"},
{"url": "http://australiancampsites.com.au/index.php?Itemid=80&catid=70%3Asouth-east&id=243%3Abombay&option=com_content&view=article", "lat": -35.427071, "lon": 149.7135, "name": "BOMBAY RESERVE"},
{"url": "http://australiancampsites.com.au/index.php?Itemid=80&catid=70%3Asouth-east&id=247%3Acharleyong&option=com_content&view=article", "lat": -35.248984, "lon": 149.89239, "name": "CHARLEYONG CROSSING"},
{"url": "http://australiancampsites.com.au/index.php?Itemid=80&catid=70%3Asouth-east&id=310%3Acorang-river&option=com_content&view=article", "lat": -35.20753, "lon": 150.05229, "name": "CORANG RIVER"},
{"url": "http://australiancampsites.com.au/index.php?Itemid=80&catid=70%3Asouth-east&id=241%3Abendeela&option=com_content&view=article", "lat": -34.739823, "lon": 150.47118, "name": "BENDEELA RESERVE"},
{"url": "http://australiancampsites.com.au/index.php?Itemid=80&catid=70%3Asouth-east&id=283%3Aaraluen&option=com_content&view=article", "lat": -35.623461, "lon": 149.79411, "name": "ARALUEN CREEK"},
{"url": "http://australiancampsites.com.au/index.php?Itemid=80&catid=62%3Amurray&id=261%3Amannus&option=com_content&view=article", "lat": -35.779177, "lon": 147.95813, "name": "MANNUS CAMPSITE"},
{"url": "http://australiancampsites.com.au/index.php?Itemid=80&catid=62%3Amurray&id=299%3Aoura-beach&option=com_content&view=article", "lat": -35.122804, "lon": 147.54342, "name": "OURA BEACH"},
{"url": "http://australiancampsites.com.au/index.php?Itemid=80&catid=62%3Amurray&id=304%3Ashanty-reserve&option=com_content&view=article", "lat": -35.114713, "lon": 147.48192, "name": "SHANTY RESERVE"},
{"url": "http://australiancampsites.com.au/index.php?Itemid=80&catid=72%3Aeast&id=251%3Adrip&option=com_content&view=article", "lat": -32.220716, "lon": 149.79386, "name": "THE DRIP"},
{"url": "http://australiancampsites.com.au/index.php?Itemid=80&catid=72%3Aeast&id=249%3Acopeland&option=com_content&view=article", "lat": -31.972952, "lon": 151.85847, "name": "COPELAND RESERVE"},
{"url": "http://australiancampsites.com.au/index.php?Itemid=80&catid=72%3Aeast&id=311%3Atelegherry&option=com_content&view=article", "lat": -32.223557, "lon": 151.74419, "name": "TELEGHERRY FOREST PARK"},
{"url": "http://australiancampsites.com.au/index.php?Itemid=80&catid=72%3Aeast&id=254%3Afrying&option=com_content&view=article", "lat": -32.218937, "lon": 151.76157, "name": "FRYING PAN CREEK"},
{"url": "http://australiancampsites.com.au/index.php?Itemid=80&catid=62%3Amurray&id=163%3Akyfinns-reserve&option=com_content&view=article", "lat": -35.9759, "lon": 146.05, "name": "KYFINNS RESERVE"},
{"url": "http://australiancampsites.com.au/index.php?Itemid=80&catid=72%3Aeast&id=312%3Awingham-riverside-reserve&option=com_content&view=article", "lat": -31.871572, "lon": 152.38079, "name": "WINGHAM RIVERSIDE RESERVE"},
{"url": "http://australiancampsites.com.au/index.php?Itemid=80&catid=62%3Amurray&id=293%3Alake-mannus&option=com_content&view=article", "lat": -35.814194, "lon": 147.98395, "name": "LAKE MANNUS"},
{"url": "http://australiancampsites.com.au/index.php?Itemid=80&catid=72%3Aeast&id=267%3Aflat-rock&option=com_content&view=article", "lat": -33.54778, "lon": 149.7922, "name": "FLAT ROCK"},
{"url": "http://australiancampsites.com.au/index.php?Itemid=81&catid=51%3Asouth-east&id=102%3Amacalister-river&option=com_content&view=article", "lat": -37.7624, "lon": 146.66, "name": "MACALISTER RIVER"},
{"url": "http://australiancampsites.com.au/index.php?Itemid=80&catid=71%3Acentral&id=305%3Awallaby-rocks-crossing&option=com_content&view=article", "lat": -33.074453, "lon": 149.64955, "name": "WALLABY ROCKS CROSSING"},
{"url": "http://australiancampsites.com.au/index.php?Itemid=80&catid=71%3Acentral&id=255%3Agreens&option=com_content&view=article", "lat": -33.09609, "lon": 149.73234, "name": "GREENS POINT"},
{"url": "http://australiancampsites.com.au/index.php?Itemid=80&catid=72%3Aeast&id=248%3Acoachwood&option=com_content&view=article", "lat": -32.217349, "lon": 151.76312, "name": "COACHWOOD"},
{"url": "http://australiancampsites.com.au/index.php?Itemid=80&catid=71%3Acentral&id=308%3Amacquarie-woods&option=com_content&view=article", "lat": -33.408732, "lon": 149.31535, "name": "MACQUARIE WOODS"},
{"url": "http://australiancampsites.com.au/index.php?Itemid=81&catid=51%3Asouth-east&id=158%3Aollies-jumpup&option=com_content&view=article", "lat": -37.3792, "lon": 147.28, "name": "OLLIES JUMP UP"},
{"url": "http://australiancampsites.com.au/index.php?Itemid=80&catid=71%3Acentral&id=307%3Afour-mile-creek&option=com_content&view=article", "lat": -33.415538, "lon": 148.98584, "name": "FOUR MILE CREEK"},
{"url": "http://australiancampsites.com.au/index.php?Itemid=80&catid=71%3Acentral&id=300%3Aration-point&option=com_content&view=article", "lat": -33.093052, "lon": 149.71271, "name": "RATION POINT"},
{"url": "http://australiancampsites.com.au/index.php?Itemid=81&catid=51%3Asouth-east&id=171%3Ajimmy-iversons-flat&option=com_content&view=article", "lat": -37.3782, "lon": 147.2, "name": "JIMMY IVERSONS\u00a0FLAT"},
{"url": "http://australiancampsites.com.au/index.php?Itemid=81&catid=51%3Asouth-east&id=184%3Agolden-beach-c9&option=com_content&view=article", "lat": -38.276, "lon": 147.321, "name": "GOLDEN BEACH - C9"},
{"url": "http://australiancampsites.com.au/index.php?Itemid=82&catid=67%3Ayorke-peninsula&id=207%3Atiparra-rocks&option=com_content&view=article", "lat": -34.3052, "lon": 137.5, "name": "TIPARRA ROCKS"},
{"url": "http://australiancampsites.com.au/index.php?Itemid=81&catid=51%3Asouth-east&id=167%3Agunnai-beach&option=com_content&view=article", "lat": -37.7868, "lon": 148.88, "name": "GUNNAI BEACH"},
{"url": "http://australiancampsites.com.au/index.php?Itemid=81&catid=51%3Asouth-east&id=172%3Aitalian-flat&option=com_content&view=article", "lat": -37.3772, "lon": 147.29, "name": "ITALIAN\u00a0FLAT"},
{"url": "http://australiancampsites.com.au/index.php?Itemid=81&catid=51%3Asouth-east&id=104%3Aharriers-swamp&option=com_content&view=article", "lat": -38.229, "lon": 146.89, "name": "HARRIERS SWAMP"},
{"url": "http://australiancampsites.com.au/index.php?Itemid=82&catid=67%3Ayorke-peninsula&id=225%3Athe-gap&option=com_content&view=article", "lat": -34.2357, "lon": 137.501, "name": "THE GAP"},
{"url": "http://australiancampsites.com.au/index.php?Itemid=82&catid=67%3Ayorke-peninsula&id=208%3Awauraltree-beach&option=com_content&view=article", "lat": -34.5877, "lon": 137.507, "name": "WAURALTREE BEACH"},
{"url": "http://australiancampsites.com.au/index.php?Itemid=82&catid=67%3Ayorke-peninsula&id=206%3Athe-bamboos&option=com_content&view=article", "lat": -34.2854, "lon": 137.498, "name": "THE BAMBOOS"},
{"url": "http://australiancampsites.com.au/index.php?Itemid=82&catid=66%3Amurray&id=218%3Amartins-bend&option=com_content&view=article", "lat": -34.2818, "lon": 140.6277, "name": "MARTINS BEND"},
{"url": "http://australiancampsites.com.au/index.php?Itemid=82&catid=67%3Ayorke-peninsula&id=209%3Abarkers-rocks&option=com_content&view=article", "lat": -34.7159, "lon": 137.486, "name": "BARKERS ROCKS"},
{"url": "http://australiancampsites.com.au/index.php?Itemid=82&catid=66%3Amurray&id=216%3Apooginook-conservation-park&option=com_content&view=article", "lat": -34.1126, "lon": 140.102, "name": "POOGINOOK CONSERVATION PARK"},
{"url": "http://australiancampsites.com.au/index.php?Itemid=82&catid=66%3Amurray&id=220%3Amurtho-forest-landing&option=com_content&view=article", "lat": -34.071, "lon": 140.779, "name": "MURTHO FOREST LANDING"},
{"url": "http://australiancampsites.com.au/index.php?Itemid=82&catid=66%3Amurray&id=215%3Alowbank-landing&option=com_content&view=article", "lat": -34.1841, "lon": 140.072, "name": "LOWBANK LANDING"},
{"url": "http://australiancampsites.com.au/index.php?Itemid=82&catid=66%3Amurray&id=213%3Ahettner-landing&option=com_content&view=article", "lat": -34.7508, "lon": 139.556, "name": "HETTNER LANDING"},
{"url": "http://australiancampsites.com.au/index.php?Itemid=82&catid=66%3Amurray&id=214%3Asouth-australia&option=com_content&view=article", "lat": -34.5619, "lon": 139.6, "name": "TENBURY - HUNTER RESERVE"},
{"url": "http://australiancampsites.com.au/index.php?Itemid=82&catid=68%3Aeyre-peninsula&id=226%3Afitzgerald-bay-bush-camp&option=com_content&view=article", "lat": -32.9086, "lon": 137.762, "name": "FITZGERALD BAY BUSH CAMP"},
{"url": "http://australiancampsites.com.au/index.php?Itemid=82&catid=69%3Aadelaide-region&id=228%3Awhite-cliffs-reserve&option=com_content&view=article", "lat": -33.5912, "lon": 138.394, "name": "WHITE CLIFFS RESERVE"},
{"url": "http://australiancampsites.com.au/index.php?Itemid=82&catid=68%3Aeyre-peninsula&id=222%3Akimba-showgrounds&option=com_content&view=article", "lat": -33.1345, "lon": 136.415, "name": "KIMBA SHOWGROUNDS"},
{"url": "http://australiancampsites.com.au/index.php?Itemid=82&catid=66%3Amurray&id=212%3Asouth-australia&option=com_content&view=article", "lat": -34.8422, "lon": 139.586, "name": "CAURNAMONT NORTH"},
{"url": "http://australiancampsites.com.au/index.php?Itemid=82&catid=68%3Aeyre-peninsula&id=224%3Afitzgerald-bay&option=com_content&view=article", "lat": -32.9165, "lon": 137.75, "name": "FITZGERALD BAY"},
{"url": "http://australiancampsites.com.au/index.php?Itemid=82&catid=66%3Amurray&id=217%3Aheron-bend&option=com_content&view=article", "lat": -34.1532, "lon": 140.331, "name": "HERON BEND"},
{"url": "http://australiancampsites.com.au/index.php?Itemid=82&catid=68%3Aeyre-peninsula&id=229%3Alipson-cove&option=com_content&view=article", "lat": -34.2622, "lon": 136.26, "name": "LIPSON COVE"},
{"url": "http://australiancampsites.com.au/index.php?Itemid=82&catid=68%3Aeyre-peninsula&id=223%3Acape-hardy-beach&option=com_content&view=article", "lat": -34.1963, "lon": 136.299, "name": "CAPE HARDY BEACH"},
{"url": "http://australiancampsites.com.au/index.php?Itemid=82&catid=69%3Aadelaide-region&id=211%3Amallala-sports-ground&option=com_content&view=article", "lat": -34.439, "lon": 138.514, "name": "MALLALA SPORTS GROUND"},
{"url": "http://australiancampsites.com.au/index.php?Itemid=82&catid=69%3Aadelaide-region&id=210%3Aport-parham-camping-reserve&option=com_content&view=article", "lat": -34.4262, "lon": 138.255, "name": "PORT PARHAM CAMPING RESERVE"},
{"url": "http://australiancampsites.com.au/index.php?Itemid=80&catid=71%3Acentral&id=253%3Afederal&option=com_content&view=article", "lat": -33.349248, "lon": 148.97778, "name": "FEDERAL FALLS"},
{"url": "http://australiancampsites.com.au/index.php?Itemid=82&catid=69%3Aadelaide-region&id=227%3Ahancocks-lookout&option=com_content&view=article", "lat": -32.7022, "lon": 138.032, "name": "HANCOCK'S LOOKOUT"},
{"url": "http://australiancampsites.com.au/index.php?Itemid=80&catid=71%3Acentral&id=245%3Acarcoar-dam&option=com_content&view=article", "lat": -33.611474, "lon": 149.18223, "name": "CARCOAR DAM"},
{"url": "http://australiancampsites.com.au/index.php?Itemid=80&catid=71%3Acentral&id=284%3Aburraga&option=com_content&view=article", "lat": -33.936328, "lon": 149.55263, "name": "BURRAGA DAM"},
{"url": "http://australiancampsites.com.au/index.php?Itemid=80&catid=71%3Acentral&id=244%3Abummaroo&option=com_content&view=article", "lat": -34.194269, "lon": 149.742773, "name": "BUMMAROO FORD"},
{"url": "http://australiancampsites.com.au/index.php?Itemid=80&catid=71%3Acentral&id=242%3Ablack&option=com_content&view=article", "lat": -33.847554, "lon": 149.74401, "name": "BLACK SPRINGS"},
{"url": "http://australiancampsites.com.au/index.php?Itemid=80&catid=71%3Acentral&id=238%3Aabercrombie&option=com_content&view=article", "lat": -33.95639, "lon": 149.32028, "name": "ABERCROMBIE"},
{"url": "http://australiancampsites.com.au/index.php?Itemid=80&catid=71%3Acentral&id=282%3Abakers&option=com_content&view=article", "lat": -33.609736, "lon": 149.01189, "name": "BAKERS SHAFT RESERVE"}]